[
 {
   "FIELD1": 0,
   "index": 261,
   "Unnamed: 0": 261,
   "name": "Aniar",
   "latitude": 53.27112,
   "longitude": -9.057078,
   "city": "Gaillimh/Galway",
   "region": "Ireland",
   "cuisine": "Creative",
   "url": "https://guide.michelin.com/ie/en/galway/gaillimh-galway/restaurant/aniar",
   "stars": 1
 },
 {
   "FIELD1": 1,
   "index": 262,
   "Unnamed: 0": 262,
   "name": "Loam",
   "latitude": 53.27384,
   "longitude": -9.044447,
   "city": "Gaillimh/Galway",
   "region": "Ireland",
   "cuisine": "Creative",
   "url": "https://guide.michelin.com/ie/en/galway/gaillimh-galway/restaurant/loam",
   "stars": 1
 },
 {
   "FIELD1": 2,
   "index": 263,
   "Unnamed: 0": 263,
   "name": "Wild Honey Inn",
   "latitude": 53.03151,
   "longitude": -9.2911,
   "city": "Lios Dúin Bhearna/Lisdoonvarna",
   "region": "Ireland",
   "cuisine": "Classic cuisine",
   "url": "https://guide.michelin.com/ie/en/clare/lios-duin-bhearna-lisdoonvarna/restaurant/wild-honey-inn",
   "stars": 1
 },
 {
   "FIELD1": 3,
   "index": 264,
   "Unnamed: 0": 264,
   "name": "Chestnut",
   "latitude": 51.562588,
   "longitude": -9.460854,
   "city": "Ballydehob",
   "region": "Ireland",
   "cuisine": "Modern cuisine",
   "url": "https://guide.michelin.com/ie/en/cork/ballydehob/restaurant/chestnut",
   "stars": 1
 },
 {
   "FIELD1": 4,
   "index": 265,
   "Unnamed: 0": 265,
   "name": "Mews",
   "latitude": 51.48285,
   "longitude": -9.37234,
   "city": "Baltimore",
   "region": "Ireland",
   "cuisine": "Modern cuisine",
   "url": "https://guide.michelin.com/ie/en/cork/ie-baltimore/restaurant/mews",
   "stars": 1
 },
 {
   "FIELD1": 5,
   "index": 266,
   "Unnamed: 0": 266,
   "name": "Ichigo Ichie",
   "latitude": 51.898167,
   "longitude": -8.479933,
   "city": "Corcaigh/Cork",
   "region": "Ireland",
   "cuisine": "Japanese",
   "url": "https://guide.michelin.com/ie/en/cork/corcaigh-cork/restaurant/ichigo-ichie",
   "stars": 1
 },
 {
   "FIELD1": 6,
   "index": 267,
   "Unnamed: 0": 267,
   "name": "Chapter One",
   "latitude": 53.354374,
   "longitude": -6.263786,
   "city": "City Centre",
   "region": "Ireland",
   "cuisine": "Modern cuisine",
   "url": "https://guide.michelin.com/ie/en/dublin/city-centre/restaurant/chapter-one",
   "stars": 1
 },
 {
   "FIELD1": 7,
   "index": 268,
   "Unnamed: 0": 268,
   "name": "Greenhouse",
   "latitude": 53.340042,
   "longitude": -6.258506,
   "city": "City Centre",
   "region": "Ireland",
   "cuisine": "Modern cuisine",
   "url": "https://guide.michelin.com/ie/en/dublin/city-centre/restaurant/greenhouse",
   "stars": 1
 },
 {
   "FIELD1": 8,
   "index": 269,
   "Unnamed: 0": 269,
   "name": "L'Ecrivain",
   "latitude": 53.33627,
   "longitude": -6.24834,
   "city": "City Centre",
   "region": "Ireland",
   "cuisine": "Modern cuisine",
   "url": "https://guide.michelin.com/ie/en/dublin/city-centre/restaurant/l-ecrivain",
   "stars": 1
 },
 {
   "FIELD1": 9,
   "index": 270,
   "Unnamed: 0": 270,
   "name": "Campagne",
   "latitude": 52.6559,
   "longitude": -7.2464285,
   "city": "Cill Chainnigh/Kilkenny",
   "region": "Ireland",
   "cuisine": "Modern British",
   "url": "https://guide.michelin.com/ie/en/kilkenny/cill-chainnigh-kilkenny/restaurant/campagne",
   "stars": 1
 },
 {
   "FIELD1": 10,
   "index": 271,
   "Unnamed: 0": 271,
   "name": "Heron & Grey",
   "latitude": 53.30143,
   "longitude": -6.177574,
   "city": "Blackrock",
   "region": "Ireland",
   "cuisine": "Modern cuisine",
   "url": "https://guide.michelin.com/ie/en/dun-laoghaire-rathdown/blackrock/restaurant/heron-grey",
   "stars": 1
 },
 {
   "FIELD1": 11,
   "index": 272,
   "Unnamed: 0": 272,
   "name": "Lady Helen",
   "latitude": 52.526096,
   "longitude": -7.188277,
   "city": "Baile Mhic Andáin/Thomastown",
   "region": "Ireland",
   "cuisine": "Modern cuisine",
   "url": "https://guide.michelin.com/ie/en/kilkenny/baile-mhic-andain-thomastown/restaurant/lady-helen",
   "stars": 1
 },
 {
   "FIELD1": 12,
   "index": 273,
   "Unnamed: 0": 273,
   "name": "House",
   "latitude": 51.94777,
   "longitude": -7.7135396,
   "city": "Aird Mhór/Ardmore",
   "region": "Ireland",
   "cuisine": "Modern cuisine",
   "url": "https://guide.michelin.com/ie/en/waterford/aird-mhor-ardmore/restaurant/house",
   "stars": 1
 },
 {
   "FIELD1": 13,
   "index": 411,
   "Unnamed: 0": 411,
   "name": "Loch Bay",
   "latitude": 57.51487,
   "longitude": -6.57114,
   "city": "Waternish",
   "region": "United Kingdom",
   "cuisine": "Modern cuisine",
   "url": "https://guide.michelin.com/gb/en/highland/waternish/restaurant/loch-bay",
   "stars": 1
 },
 {
   "FIELD1": 14,
   "index": 412,
   "Unnamed: 0": 412,
   "name": "Braidwoods",
   "latitude": 55.69474,
   "longitude": -4.7425,
   "city": "Dalry",
   "region": "United Kingdom",
   "cuisine": "Classic cuisine",
   "url": "https://guide.michelin.com/gb/en/north-ayrshire/dalry/restaurant/braidwoods",
   "stars": 1
 },
 {
   "FIELD1": 15,
   "index": 413,
   "Unnamed: 0": 413,
   "name": "Eipic",
   "latitude": 54.595898,
   "longitude": -5.9322424,
   "city": "Belfast",
   "region": "United Kingdom",
   "cuisine": "Modern cuisine",
   "url": "https://guide.michelin.com/gb/en/belfast/belfast/restaurant/eipic",
   "stars": 1
 },
 {
   "FIELD1": 16,
   "index": 414,
   "Unnamed: 0": 414,
   "name": "OX",
   "latitude": 54.59891,
   "longitude": -5.92198,
   "city": "Belfast",
   "region": "United Kingdom",
   "cuisine": "Modern British",
   "url": "https://guide.michelin.com/gb/en/belfast/belfast/restaurant/ox399109",
   "stars": 1
 },
 {
   "FIELD1": 17,
   "index": 415,
   "Unnamed: 0": 415,
   "name": "The Peat Inn",
   "latitude": 56.27861,
   "longitude": -2.8845797,
   "city": "Peat Inn",
   "region": "United Kingdom",
   "cuisine": "Classic cuisine",
   "url": "https://guide.michelin.com/gb/en/fife/peat-inn/restaurant/the-peat-inn",
   "stars": 1
 },
 {
   "FIELD1": 18,
   "index": 416,
   "Unnamed: 0": 416,
   "name": "Kitchin",
   "latitude": 55.976967,
   "longitude": -3.172842,
   "city": "Leith",
   "region": "United Kingdom",
   "cuisine": "Modern cuisine",
   "url": "https://guide.michelin.com/gb/en/city-of-edinburgh/leith/restaurant/kitchin",
   "stars": 1
 },
 {
   "FIELD1": 19,
   "index": 417,
   "Unnamed: 0": 417,
   "name": "Martin Wishart",
   "latitude": 55.97552,
   "longitude": -3.17019,
   "city": "Leith",
   "region": "United Kingdom",
   "cuisine": "Modern cuisine",
   "url": "https://guide.michelin.com/gb/en/city-of-edinburgh/leith/restaurant/martin-wishart",
   "stars": 1
 },
 {
   "FIELD1": 20,
   "index": 418,
   "Unnamed: 0": 418,
   "name": "Number One",
   "latitude": 55.95298,
   "longitude": -3.18966,
   "city": "Edinburgh",
   "region": "United Kingdom",
   "cuisine": "Modern cuisine",
   "url": "https://guide.michelin.com/gb/en/city-of-edinburgh/edinburgh/restaurant/number-one",
   "stars": 1
 },
 {
   "FIELD1": 21,
   "index": 419,
   "Unnamed: 0": 419,
   "name": "21212",
   "latitude": 55.95674,
   "longitude": -3.18018,
   "city": "Edinburgh",
   "region": "United Kingdom",
   "cuisine": "Creative",
   "url": "https://guide.michelin.com/gb/en/city-of-edinburgh/edinburgh/restaurant/21212",
   "stars": 1
 },
 {
   "FIELD1": 22,
   "index": 420,
   "Unnamed: 0": 420,
   "name": "The Cellar",
   "latitude": 56.222126,
   "longitude": -2.696321,
   "city": "Anstruther",
   "region": "United Kingdom",
   "cuisine": "Modern cuisine",
   "url": "https://guide.michelin.com/gb/en/fife/anstruther/restaurant/the-cellar",
   "stars": 1
 },
 {
   "FIELD1": 23,
   "index": 421,
   "Unnamed: 0": 421,
   "name": "Forest Side",
   "latitude": 54.46396,
   "longitude": -3.0157998,
   "city": "Grasmere",
   "region": "United Kingdom",
   "cuisine": "Modern British",
   "url": "https://guide.michelin.com/gb/en/cumbria/grasmere/restaurant/forest-side",
   "stars": 1
 },
 {
   "FIELD1": 24,
   "index": 422,
   "Unnamed: 0": 422,
   "name": "HRiSHi",
   "latitude": 54.35013,
   "longitude": -2.91172,
   "city": "Bowness-on-Windermere",
   "region": "United Kingdom",
   "cuisine": "Modern cuisine",
   "url": "https://guide.michelin.com/gb/en/cumbria/bowness-on-windermere/restaurant/hrishi",
   "stars": 1
 },
 {
   "FIELD1": 25,
   "index": 423,
   "Unnamed: 0": 423,
   "name": "Rogan & Co",
   "latitude": 54.20074,
   "longitude": -2.95464,
   "city": "Cartmel",
   "region": "United Kingdom",
   "cuisine": "Creative British",
   "url": "https://guide.michelin.com/gb/en/cumbria/cartmel/restaurant/rogan-co",
   "stars": 1
 },
 {
   "FIELD1": 26,
   "index": 424,
   "Unnamed: 0": 424,
   "name": "House of Tides",
   "latitude": 54.96758,
   "longitude": -1.61127,
   "city": "Newcastle upon Tyne",
   "region": "United Kingdom",
   "cuisine": "Modern cuisine",
   "url": "https://guide.michelin.com/gb/en/tyne-and-wear/newcastle-upon-tyne/restaurant/house-of-tides",
   "stars": 1
 },
 {
   "FIELD1": 27,
   "index": 425,
   "Unnamed: 0": 425,
   "name": "Sosban & The Old Butchers",
   "latitude": 53.225925,
   "longitude": -4.163006,
   "city": "Menai Bridge/Porthaethwy",
   "region": "United Kingdom",
   "cuisine": "Modern cuisine",
   "url": "https://guide.michelin.com/gb/en/isle-of-anglesey/menai-bridge-porthaethwy/restaurant/sosban-the-old-butchers",
   "stars": 1
 },
 {
   "FIELD1": 28,
   "index": 426,
   "Unnamed: 0": 426,
   "name": "Northcote",
   "latitude": 53.80933,
   "longitude": -2.4476,
   "city": "Langho",
   "region": "United Kingdom",
   "cuisine": "Modern British",
   "url": "https://guide.michelin.com/gb/en/lancashire/langho/restaurant/northcote",
   "stars": 1
 },
 {
   "FIELD1": 29,
   "index": 427,
   "Unnamed: 0": 427,
   "name": "Yorke Arms",
   "latitude": 54.13435,
   "longitude": -1.8183095,
   "city": "Pateley Bridge",
   "region": "United Kingdom",
   "cuisine": "Modern cuisine",
   "url": "https://guide.michelin.com/gb/en/north-yorkshire/pateley-bridge/restaurant/yorke-arms",
   "stars": 1
 },
 {
   "FIELD1": 30,
   "index": 428,
   "Unnamed: 0": 428,
   "name": "Fraiche",
   "latitude": 53.38183,
   "longitude": -3.04307,
   "city": "Birkenhead",
   "region": "United Kingdom",
   "cuisine": "Creative",
   "url": "https://guide.michelin.com/gb/en/merseyside/birkenhead/restaurant/fraiche",
   "stars": 1
 },
 {
   "FIELD1": 31,
   "index": 429,
   "Unnamed: 0": 429,
   "name": "White Swan",
   "latitude": 53.83916,
   "longitude": -2.25097,
   "city": "Fence",
   "region": "United Kingdom",
   "cuisine": "Modern British",
   "url": "https://guide.michelin.com/gb/en/lancashire/fence/restaurant/white-swan",
   "stars": 1
 },
 {
   "FIELD1": 32,
   "index": 430,
   "Unnamed: 0": 430,
   "name": "Tyddyn Llan",
   "latitude": 52.92405,
   "longitude": -3.44329,
   "city": "Llandrillo",
   "region": "United Kingdom",
   "cuisine": "Classic cuisine",
   "url": "https://guide.michelin.com/gb/en/denbighshire/llandrillo/restaurant/tyddyn-llan",
   "stars": 1
 },
 {
   "FIELD1": 33,
   "index": 431,
   "Unnamed: 0": 431,
   "name": "Ynyshir",
   "latitude": 52.54476,
   "longitude": -3.94491,
   "city": "Machynlleth",
   "region": "United Kingdom",
   "cuisine": "Creative",
   "url": "https://guide.michelin.com/gb/en/ceredigion/machynlleth/restaurant/ynyshir",
   "stars": 1
 },
 {
   "FIELD1": 34,
   "index": 432,
   "Unnamed: 0": 432,
   "name": "Black Swan",
   "latitude": 54.21205,
   "longitude": -1.1879199,
   "city": "Oldstead",
   "region": "United Kingdom",
   "cuisine": "Modern British",
   "url": "https://guide.michelin.com/gb/en/north-yorkshire/oldstead/restaurant/black-swan",
   "stars": 1
 },
 {
   "FIELD1": 35,
   "index": 433,
   "Unnamed: 0": 433,
   "name": "Simon Radley at Chester Grosvenor",
   "latitude": 53.19064,
   "longitude": -2.88913,
   "city": "Chester",
   "region": "United Kingdom",
   "cuisine": "Modern cuisine",
   "url": "https://guide.michelin.com/gb/en/cheshire-west-and-chester/chester/restaurant/simon-radley-at-chester-grosvenor",
   "stars": 1
 },
 {
   "FIELD1": 36,
   "index": 434,
   "Unnamed: 0": 434,
   "name": "Star Inn at Harome",
   "latitude": 54.23101,
   "longitude": -1.01023,
   "city": "Harome",
   "region": "United Kingdom",
   "cuisine": "Modern British",
   "url": "https://guide.michelin.com/gb/en/north-yorkshire/harome/restaurant/star-inn-at-harome",
   "stars": 1
 },
 {
   "FIELD1": 37,
   "index": 435,
   "Unnamed: 0": 435,
   "name": "The Man Behind The Curtain",
   "latitude": 53.798286,
   "longitude": -1.539937,
   "city": "Leeds",
   "region": "United Kingdom",
   "cuisine": "Creative",
   "url": "https://guide.michelin.com/gb/en/kent/leeds/restaurant/the-man-behind-the-curtain",
   "stars": 1
 },
 {
   "FIELD1": 38,
   "index": 436,
   "Unnamed: 0": 436,
   "name": "The Checkers",
   "latitude": 52.55568,
   "longitude": -3.13769,
   "city": "Montgomery/Trefaldwyn",
   "region": "United Kingdom",
   "cuisine": "French",
   "url": "https://guide.michelin.com/gb/en/powys/montgomery-trefaldwyn/restaurant/the-checkers",
   "stars": 1
 },
 {
   "FIELD1": 39,
   "index": 437,
   "Unnamed: 0": 437,
   "name": "Pipe and Glass",
   "latitude": 53.8955,
   "longitude": -0.53301,
   "city": "South Dalton",
   "region": "United Kingdom",
   "cuisine": "Modern British",
   "url": "https://guide.michelin.com/gb/en/east-riding-of-yorkshire/south-dalton/restaurant/pipe-and-glass",
   "stars": 1
 },
 {
   "FIELD1": 40,
   "index": 438,
   "Unnamed: 0": 438,
   "name": "Fischer's at Baslow Hall",
   "latitude": 53.25055,
   "longitude": -1.6269798,
   "city": "Baslow",
   "region": "United Kingdom",
   "cuisine": "Modern cuisine",
   "url": "https://guide.michelin.com/gb/en/derbyshire/baslow/restaurant/fischer-s-at-baslow-hall",
   "stars": 1
 },
 {
   "FIELD1": 41,
   "index": 439,
   "Unnamed: 0": 439,
   "name": "Winteringham Fields",
   "latitude": 53.68778,
   "longitude": -0.59013,
   "city": "Winteringham",
   "region": "United Kingdom",
   "cuisine": "Modern cuisine",
   "url": "https://guide.michelin.com/gb/en/north-lincolnshire/winteringham/restaurant/winteringham-fields",
   "stars": 1
 },
 {
   "FIELD1": 42,
   "index": 440,
   "Unnamed: 0": 440,
   "name": "Thomas Carr @ The Olive Room",
   "latitude": 51.209476,
   "longitude": -4.118807,
   "city": "Ilfracombe",
   "region": "United Kingdom",
   "cuisine": "Seafood",
   "url": "https://guide.michelin.com/gb/en/devon/ilfracombe/restaurant/thomas-carr-the-olive-room",
   "stars": 1
 },
 {
   "FIELD1": 43,
   "index": 441,
   "Unnamed: 0": 441,
   "name": "Walnut Tree",
   "latitude": 51.84534,
   "longitude": -2.95438,
   "city": "Llanddewi Skirrid",
   "region": "United Kingdom",
   "cuisine": "Modern British",
   "url": "https://guide.michelin.com/gb/en/monmouthshire/llanddewi-skirrid/restaurant/walnut-tree",
   "stars": 1
 },
 {
   "FIELD1": 44,
   "index": 442,
   "Unnamed: 0": 442,
   "name": "Paul Ainsworth at No.6",
   "latitude": 50.541534,
   "longitude": -4.9398518,
   "city": "Padstow",
   "region": "United Kingdom",
   "cuisine": "Modern cuisine",
   "url": "https://guide.michelin.com/gb/en/cornwall/padstow/restaurant/paul-ainsworth-at-no-6",
   "stars": 1
 },
 {
   "FIELD1": 45,
   "index": 443,
   "Unnamed: 0": 443,
   "name": "Simpsons",
   "latitude": 52.46925,
   "longitude": -1.9238801,
   "city": "Birmingham",
   "region": "United Kingdom",
   "cuisine": "Modern cuisine",
   "url": "https://guide.michelin.com/gb/en/west-midlands/birmingham/restaurant/simpsons",
   "stars": 1
 },
 {
   "FIELD1": 46,
   "index": 444,
   "Unnamed: 0": 444,
   "name": "Purnell's",
   "latitude": 52.48268,
   "longitude": -1.9018,
   "city": "Birmingham",
   "region": "United Kingdom",
   "cuisine": "Modern cuisine",
   "url": "https://guide.michelin.com/gb/en/west-midlands/birmingham/restaurant/purnell-s",
   "stars": 1
 },
 {
   "FIELD1": 47,
   "index": 445,
   "Unnamed: 0": 445,
   "name": "Adam's",
   "latitude": 52.47964,
   "longitude": -1.900286,
   "city": "Birmingham",
   "region": "United Kingdom",
   "cuisine": "Modern cuisine",
   "url": "https://guide.michelin.com/gb/en/west-midlands/birmingham/restaurant/adam-s",
   "stars": 1
 },
 {
   "FIELD1": 48,
   "index": 446,
   "Unnamed: 0": 446,
   "name": "Outlaw's Fish Kitchen",
   "latitude": 50.59206,
   "longitude": -4.832,
   "city": "Port Isaac",
   "region": "United Kingdom",
   "cuisine": "Seafood",
   "url": "https://guide.michelin.com/gb/en/cornwall/port-isaac/restaurant/outlaw-s-fish-kitchen",
   "stars": 1
 },
 {
   "FIELD1": 49,
   "index": 447,
   "Unnamed: 0": 447,
   "name": "Carters of Moseley",
   "latitude": 52.44588,
   "longitude": -1.88384,
   "city": "Birmingham",
   "region": "United Kingdom",
   "cuisine": "Modern British",
   "url": "https://guide.michelin.com/gb/en/west-midlands/birmingham/restaurant/carters-of-moseley",
   "stars": 1
 },
 {
   "FIELD1": 50,
   "index": 448,
   "Unnamed: 0": 448,
   "name": "Peel's",
   "latitude": 52.4259,
   "longitude": -1.70536,
   "city": "Hampton in Arden",
   "region": "United Kingdom",
   "cuisine": "Creative British",
   "url": "https://guide.michelin.com/gb/en/west-midlands/hampton-in-arden/restaurant/peel-s",
   "stars": 1
 },
 {
   "FIELD1": 51,
   "index": 449,
   "Unnamed: 0": 449,
   "name": "John's House",
   "latitude": 52.73295,
   "longitude": -1.145851,
   "city": "Mountsorrel",
   "region": "United Kingdom",
   "cuisine": "Modern cuisine",
   "url": "https://guide.michelin.com/gb/en/leicestershire/mountsorrel/restaurant/john-s-house",
   "stars": 1
 },
 {
   "FIELD1": 52,
   "index": 450,
   "Unnamed: 0": 450,
   "name": "The Whitebrook",
   "latitude": 51.759697,
   "longitude": -2.686909,
   "city": "Whitebrook",
   "region": "United Kingdom",
   "cuisine": "Modern British",
   "url": "https://guide.michelin.com/gb/en/monmouthshire/whitebrook/restaurant/the-whitebrook",
   "stars": 1
 },
 {
   "FIELD1": 53,
   "index": 451,
   "Unnamed: 0": 451,
   "name": "James Sommerin",
   "latitude": 51.434387,
   "longitude": -3.167951,
   "city": "Penarth",
   "region": "United Kingdom",
   "cuisine": "Modern cuisine",
   "url": "https://guide.michelin.com/gb/en/the-vale-of-glamorgan/penarth/restaurant/james-sommerin",
   "stars": 1
 },
 {
   "FIELD1": 54,
   "index": 452,
   "Unnamed: 0": 452,
   "name": "Driftwood",
   "latitude": 50.1889,
   "longitude": -4.97088,
   "city": "Portscatho",
   "region": "United Kingdom",
   "cuisine": "Modern cuisine",
   "url": "https://guide.michelin.com/gb/en/cornwall/portscatho/restaurant/driftwood",
   "stars": 1
 },
 {
   "FIELD1": 55,
   "index": 453,
   "Unnamed: 0": 453,
   "name": "The Cross at Kenilworth",
   "latitude": 52.350315,
   "longitude": -1.5801147,
   "city": "Kenilworth",
   "region": "United Kingdom",
   "cuisine": "Classic cuisine",
   "url": "https://guide.michelin.com/gb/en/warwickshire/kenilworth/restaurant/the-cross-at-kenilworth",
   "stars": 1
 },
 {
   "FIELD1": 56,
   "index": 454,
   "Unnamed: 0": 454,
   "name": "Masons Arms",
   "latitude": 50.99547,
   "longitude": -3.67163,
   "city": "Knowstone",
   "region": "United Kingdom",
   "cuisine": "Classic French",
   "url": "https://guide.michelin.com/gb/en/devon/knowstone/restaurant/masons-arms",
   "stars": 1
 },
 {
   "FIELD1": 57,
   "index": 455,
   "Unnamed: 0": 455,
   "name": "Salt",
   "latitude": 52.18963,
   "longitude": -1.7092043,
   "city": "Stratford-upon-Avon",
   "region": "United Kingdom",
   "cuisine": "Modern British",
   "url": "https://guide.michelin.com/gb/en/warwickshire/stratford-upon-avon/restaurant/salt522869",
   "stars": 1
 },
 {
   "FIELD1": 58,
   "index": 456,
   "Unnamed: 0": 456,
   "name": "Le Champignon Sauvage",
   "latitude": 51.89146,
   "longitude": -2.07912,
   "city": "Cheltenham",
   "region": "United Kingdom",
   "cuisine": "Modern cuisine",
   "url": "https://guide.michelin.com/gb/en/gloucestershire/cheltenham/restaurant/le-champignon-sauvage",
   "stars": 1
 },
 {
   "FIELD1": 59,
   "index": 457,
   "Unnamed: 0": 457,
   "name": "Gidleigh Park",
   "latitude": 50.67658,
   "longitude": -3.87354,
   "city": "Chagford",
   "region": "United Kingdom",
   "cuisine": "Modern cuisine",
   "url": "https://guide.michelin.com/gb/en/devon/chagford/restaurant/gidleigh-park",
   "stars": 1
 },
 {
   "FIELD1": 60,
   "index": 458,
   "Unnamed: 0": 458,
   "name": "Hambleton Hall",
   "latitude": 52.65737,
   "longitude": -0.66812,
   "city": "Upper Hambleton",
   "region": "United Kingdom",
   "cuisine": "Classic cuisine",
   "url": "https://guide.michelin.com/gb/en/rutland/upper-hambleton/restaurant/hambleton-hall",
   "stars": 1
 },
 {
   "FIELD1": 61,
   "index": 459,
   "Unnamed: 0": 459,
   "name": "wilks",
   "latitude": 51.46737,
   "longitude": -2.6069899,
   "city": "Bristol",
   "region": "United Kingdom",
   "cuisine": "Modern British",
   "url": "https://guide.michelin.com/gb/en/south-gloucestershire/bristol/restaurant/wilks",
   "stars": 1
 },
 {
   "FIELD1": 62,
   "index": 460,
   "Unnamed: 0": 460,
   "name": "Bulrush",
   "latitude": 51.46278,
   "longitude": -2.597758,
   "city": "Bristol",
   "region": "United Kingdom",
   "cuisine": "Modern British",
   "url": "https://guide.michelin.com/gb/en/south-gloucestershire/bristol/restaurant/bulrush",
   "stars": 1
 },
 {
   "FIELD1": 63,
   "index": 461,
   "Unnamed: 0": 461,
   "name": "Casamia",
   "latitude": 51.447254,
   "longitude": -2.5940728,
   "city": "Bristol",
   "region": "United Kingdom",
   "cuisine": "Creative",
   "url": "https://guide.michelin.com/gb/en/south-gloucestershire/bristol/restaurant/casamia",
   "stars": 1
 },
 {
   "FIELD1": 64,
   "index": 462,
   "Unnamed: 0": 462,
   "name": "Paco Tapas",
   "latitude": 51.44647,
   "longitude": -2.59358,
   "city": "Bristol",
   "region": "United Kingdom",
   "cuisine": "Spanish",
   "url": "https://guide.michelin.com/gb/en/south-gloucestershire/bristol/restaurant/paco-tapas",
   "stars": 1
 },
 {
   "FIELD1": 65,
   "index": 463,
   "Unnamed: 0": 463,
   "name": "Pony & Trap",
   "latitude": 51.34938,
   "longitude": -2.5925994,
   "city": "Chew Magna",
   "region": "United Kingdom",
   "cuisine": "Modern British",
   "url": "https://guide.michelin.com/gb/en/bath-and-north-east-somerset/chew-magna/restaurant/pony-trap",
   "stars": 1
 },
 {
   "FIELD1": 66,
   "index": 464,
   "Unnamed: 0": 464,
   "name": "The Dining Room",
   "latitude": 51.58376,
   "longitude": -2.14954,
   "city": "Malmesbury",
   "region": "United Kingdom",
   "cuisine": "Asian influences",
   "url": "https://guide.michelin.com/gb/en/wiltshire/malmesbury/restaurant/the-dining-room193454",
   "stars": 1
 },
 {
   "FIELD1": 67,
   "index": 465,
   "Unnamed: 0": 465,
   "name": "Bybrook",
   "latitude": 51.49382,
   "longitude": -2.23212,
   "city": "Castle Combe",
   "region": "United Kingdom",
   "cuisine": "Modern British",
   "url": "https://guide.michelin.com/gb/en/wiltshire/castle-combe/restaurant/bybrook",
   "stars": 1
 },
 {
   "FIELD1": 68,
   "index": 466,
   "Unnamed: 0": 466,
   "name": "Restaurant Hywel Jones by Lucknam Park",
   "latitude": 51.45502,
   "longitude": -2.25941,
   "city": "Colerne",
   "region": "United Kingdom",
   "cuisine": "Modern British",
   "url": "https://guide.michelin.com/gb/en/wiltshire/colerne/restaurant/restaurant-hywel-jones-by-lucknam-park",
   "stars": 1
 },
 {
   "FIELD1": 69,
   "index": 467,
   "Unnamed: 0": 467,
   "name": "Olive Tree",
   "latitude": 51.38707,
   "longitude": -2.3627,
   "city": "Bath",
   "region": "United Kingdom",
   "cuisine": "Modern cuisine",
   "url": "https://guide.michelin.com/gb/en/bath-and-north-east-somerset/bath/restaurant/olive-tree",
   "stars": 1
 },
 {
   "FIELD1": 70,
   "index": 468,
   "Unnamed: 0": 468,
   "name": "Lympstone Manor",
   "latitude": 50.64069,
   "longitude": -3.4186063,
   "city": "Lympstone",
   "region": "United Kingdom",
   "cuisine": "Modern cuisine",
   "url": "https://guide.michelin.com/gb/en/devon/lympstone/restaurant/lympstone-manor",
   "stars": 1
 },
 {
   "FIELD1": 71,
   "index": 469,
   "Unnamed: 0": 469,
   "name": "The Neptune",
   "latitude": 52.9511,
   "longitude": 0.50927,
   "city": "Hunstanton",
   "region": "United Kingdom",
   "cuisine": "Modern cuisine",
   "url": "https://guide.michelin.com/gb/en/norfolk/hunstanton/restaurant/the-neptune",
   "stars": 1
 },
 {
   "FIELD1": 72,
   "index": 470,
   "Unnamed: 0": 470,
   "name": "Elephant",
   "latitude": 50.45853,
   "longitude": -3.52438,
   "city": "Torquay",
   "region": "United Kingdom",
   "cuisine": "Modern British",
   "url": "https://guide.michelin.com/gb/en/torbay/torquay/restaurant/elephant",
   "stars": 1
 },
 {
   "FIELD1": 73,
   "index": 471,
   "Unnamed: 0": 471,
   "name": "Oxford Kitchen",
   "latitude": 51.776733,
   "longitude": -1.264794,
   "city": "Oxford",
   "region": "United Kingdom",
   "cuisine": "Modern British",
   "url": "https://guide.michelin.com/gb/en/oxfordshire/oxford/restaurant/oxford-kitchen",
   "stars": 1
 },
 {
   "FIELD1": 74,
   "index": 472,
   "Unnamed: 0": 472,
   "name": "Nut Tree",
   "latitude": 51.83618,
   "longitude": -1.1499,
   "city": "Murcott",
   "region": "United Kingdom",
   "cuisine": "Traditional British",
   "url": "https://guide.michelin.com/gb/en/oxfordshire/murcott/restaurant/nut-tree",
   "stars": 1
 },
 {
   "FIELD1": 75,
   "index": 473,
   "Unnamed: 0": 473,
   "name": "Morston Hall",
   "latitude": 52.95473,
   "longitude": 0.98729,
   "city": "Morston",
   "region": "United Kingdom",
   "cuisine": "Modern British",
   "url": "https://guide.michelin.com/gb/en/norfolk/morston/restaurant/morston-hall",
   "stars": 1
 },
 {
   "FIELD1": 76,
   "index": 474,
   "Unnamed: 0": 474,
   "name": "Red Lion Freehouse",
   "latitude": 51.2736,
   "longitude": -1.8007996,
   "city": "East Chisenbury",
   "region": "United Kingdom",
   "cuisine": "Classic cuisine",
   "url": "https://guide.michelin.com/gb/en/wiltshire/east-chisenbury/restaurant/red-lion-freehouse",
   "stars": 1
 },
 {
   "FIELD1": 77,
   "index": 475,
   "Unnamed: 0": 475,
   "name": "Blackbird",
   "latitude": 51.420887,
   "longitude": -1.3493549,
   "city": "Newbury",
   "region": "United Kingdom",
   "cuisine": "Classic cuisine",
   "url": "https://guide.michelin.com/gb/en/west-berkshire/newbury/restaurant/blackbird552018",
   "stars": 1
 },
 {
   "FIELD1": 78,
   "index": 476,
   "Unnamed: 0": 476,
   "name": "Woodspeen",
   "latitude": 51.415802,
   "longitude": -1.353532,
   "city": "Newbury",
   "region": "United Kingdom",
   "cuisine": "Modern cuisine",
   "url": "https://guide.michelin.com/gb/en/west-berkshire/newbury/restaurant/woodspeen",
   "stars": 1
 },
 {
   "FIELD1": 79,
   "index": 477,
   "Unnamed: 0": 477,
   "name": "The Coach",
   "latitude": 51.571712,
   "longitude": -0.7772678,
   "city": "Marlow",
   "region": "United Kingdom",
   "cuisine": "Modern British",
   "url": "https://guide.michelin.com/gb/en/buckinghamshire/marlow/restaurant/the-coach",
   "stars": 1
 },
 {
   "FIELD1": 80,
   "index": 478,
   "Unnamed: 0": 478,
   "name": "Crown",
   "latitude": 51.524807,
   "longitude": -0.7915291,
   "city": "Burchett's Green",
   "region": "United Kingdom",
   "cuisine": "Regional cuisine",
   "url": "https://guide.michelin.com/gb/en/windsor-and-maidenhead/burchett-s-green/restaurant/crown442549",
   "stars": 1
 },
 {
   "FIELD1": 81,
   "index": 479,
   "Unnamed: 0": 479,
   "name": "L'Ortolan",
   "latitude": 51.40833,
   "longitude": -0.9542898,
   "city": "Shinfield",
   "region": "United Kingdom",
   "cuisine": "French",
   "url": "https://guide.michelin.com/gb/en/wokingham/shinfield/restaurant/l-ortolan",
   "stars": 1
 },
 {
   "FIELD1": 82,
   "index": 480,
   "Unnamed: 0": 480,
   "name": "Hinds Head",
   "latitude": 51.51265,
   "longitude": -0.69641,
   "city": "Bray",
   "region": "United Kingdom",
   "cuisine": "Traditional British",
   "url": "https://guide.michelin.com/gb/en/buckinghamshire/bray/restaurant/hinds-head",
   "stars": 1
 },
 {
   "FIELD1": 83,
   "index": 481,
   "Unnamed: 0": 481,
   "name": "Black Rat",
   "latitude": 51.05796,
   "longitude": -1.3069497,
   "city": "Winchester",
   "region": "United Kingdom",
   "cuisine": "Modern cuisine",
   "url": "https://guide.michelin.com/gb/en/hampshire/winchester/restaurant/black-rat",
   "stars": 1
 },
 {
   "FIELD1": 84,
   "index": 482,
   "Unnamed: 0": 482,
   "name": "Matt Worswick at The Latymer",
   "latitude": 51.35764,
   "longitude": -0.7086128,
   "city": "Bagshot",
   "region": "United Kingdom",
   "cuisine": "Modern cuisine",
   "url": "https://guide.michelin.com/gb/en/surrey/bagshot/restaurant/matt-worswick-at-the-latymer",
   "stars": 1
 },
 {
   "FIELD1": 85,
   "index": 483,
   "Unnamed: 0": 483,
   "name": "Coworth Park",
   "latitude": 51.40463,
   "longitude": -0.616715,
   "city": "Ascot",
   "region": "United Kingdom",
   "cuisine": "Modern cuisine",
   "url": "https://guide.michelin.com/gb/en/windsor-and-maidenhead/ascot/restaurant/coworth-park",
   "stars": 1
 },
 {
   "FIELD1": 86,
   "index": 484,
   "Unnamed: 0": 484,
   "name": "Tudor Room",
   "latitude": 51.41759,
   "longitude": -0.545847,
   "city": "Egham",
   "region": "United Kingdom",
   "cuisine": "Modern cuisine",
   "url": "https://guide.michelin.com/gb/en/surrey/egham/restaurant/tudor-room",
   "stars": 1
 },
 {
   "FIELD1": 87,
   "index": 485,
   "Unnamed: 0": 485,
   "name": "The Glasshouse",
   "latitude": 51.4771,
   "longitude": -0.28574,
   "city": "Kew",
   "region": "United Kingdom",
   "cuisine": "Modern cuisine",
   "url": "https://guide.michelin.com/gb/en/greater-london/kew/restaurant/the-glasshouse",
   "stars": 1
 },
 {
   "FIELD1": 88,
   "index": 486,
   "Unnamed: 0": 486,
   "name": "La Trompette",
   "latitude": 51.49222,
   "longitude": -0.25619,
   "city": "Chiswick",
   "region": "United Kingdom",
   "cuisine": "Modern British",
   "url": "https://guide.michelin.com/gb/en/greater-london/chiswick/restaurant/la-trompette",
   "stars": 1
 },
 {
   "FIELD1": 89,
   "index": 487,
   "Unnamed: 0": 487,
   "name": "Tim Allen's Flitch of Bacon",
   "latitude": 51.86747,
   "longitude": 0.404134,
   "city": "Little Dunmow",
   "region": "United Kingdom",
   "cuisine": "Modern British",
   "url": "https://guide.michelin.com/gb/en/essex/little-dunmow/restaurant/tim-allen-s-flitch-of-bacon",
   "stars": 1
 },
 {
   "FIELD1": 90,
   "index": 488,
   "Unnamed: 0": 488,
   "name": "River Café",
   "latitude": 51.48395,
   "longitude": -0.22423,
   "city": "Hammersmith",
   "region": "United Kingdom",
   "cuisine": "Italian",
   "url": "https://guide.michelin.com/gb/en/greater-london/hammersmith/restaurant/river-cafe",
   "stars": 1
 },
 {
   "FIELD1": 91,
   "index": 489,
   "Unnamed: 0": 489,
   "name": "Kitchen W8",
   "latitude": 51.49918,
   "longitude": -0.19692,
   "city": "Kensington",
   "region": "United Kingdom",
   "cuisine": "Modern cuisine",
   "url": "https://guide.michelin.com/gb/en/greater-london/kensington/restaurant/kitchen-w8",
   "stars": 1
 },
 {
   "FIELD1": 92,
   "index": 490,
   "Unnamed: 0": 490,
   "name": "Trishna",
   "latitude": 51.51834,
   "longitude": -0.153031,
   "city": "Marylebone",
   "region": "United Kingdom",
   "cuisine": "Indian",
   "url": "https://guide.michelin.com/gb/en/greater-london/marylebone/restaurant/trishna",
   "stars": 1
 },
 {
   "FIELD1": 93,
   "index": 491,
   "Unnamed: 0": 491,
   "name": "Roganic",
   "latitude": 51.518314,
   "longitude": -0.1520875,
   "city": "Marylebone",
   "region": "United Kingdom",
   "cuisine": "Creative British",
   "url": "https://guide.michelin.com/gb/en/greater-london/marylebone/restaurant/roganic",
   "stars": 1
 },
 {
   "FIELD1": 94,
   "index": 492,
   "Unnamed: 0": 492,
   "name": "Locanda Locatelli",
   "latitude": 51.51514,
   "longitude": -0.15675,
   "city": "Marylebone",
   "region": "United Kingdom",
   "cuisine": "Italian",
   "url": "https://guide.michelin.com/gb/en/greater-london/marylebone/restaurant/locanda-locatelli",
   "stars": 1
 },
 {
   "FIELD1": 95,
   "index": 493,
   "Unnamed: 0": 493,
   "name": "Texture",
   "latitude": 51.51488,
   "longitude": -0.15664,
   "city": "Marylebone",
   "region": "United Kingdom",
   "cuisine": "Creative",
   "url": "https://guide.michelin.com/gb/en/greater-london/marylebone/restaurant/texture",
   "stars": 1
 },
 {
   "FIELD1": 96,
   "index": 494,
   "Unnamed: 0": 494,
   "name": "Portland",
   "latitude": 51.519726,
   "longitude": -0.142555,
   "city": "Regent's Park",
   "region": "United Kingdom",
   "cuisine": "Modern cuisine",
   "url": "https://guide.michelin.com/gb/en/greater-london/regent-s-park/restaurant/portland",
   "stars": 1
 },
 {
   "FIELD1": 97,
   "index": 495,
   "Unnamed: 0": 495,
   "name": "Harwood Arms",
   "latitude": 51.48291,
   "longitude": -0.19651,
   "city": "Fulham",
   "region": "United Kingdom",
   "cuisine": "Modern British",
   "url": "https://guide.michelin.com/gb/en/greater-london/fulham/restaurant/harwood-arms",
   "stars": 1
 },
 {
   "FIELD1": 98,
   "index": 496,
   "Unnamed: 0": 496,
   "name": "Pied à Terre",
   "latitude": 51.519,
   "longitude": -0.13511,
   "city": "Bloomsbury",
   "region": "United Kingdom",
   "cuisine": "Creative",
   "url": "https://guide.michelin.com/gb/en/greater-london/bloomsbury/restaurant/pied-a-terre",
   "stars": 1
 },
 {
   "FIELD1": 99,
   "index": 497,
   "Unnamed: 0": 497,
   "name": "The Ninth",
   "latitude": 51.51875,
   "longitude": -0.1350068,
   "city": "Bloomsbury",
   "region": "United Kingdom",
   "cuisine": "Mediterranean cuisine",
   "url": "https://guide.michelin.com/gb/en/greater-london/bloomsbury/restaurant/the-ninth",
   "stars": 1
 },
 {
   "FIELD1": 100,
   "index": 498,
   "Unnamed: 0": 498,
   "name": "Kai",
   "latitude": 51.50871,
   "longitude": -0.15162,
   "city": "Mayfair",
   "region": "United Kingdom",
   "cuisine": "Chinese",
   "url": "https://guide.michelin.com/gb/en/greater-london/mayfair/restaurant/kai123638",
   "stars": 1
 },
 {
   "FIELD1": 101,
   "index": 499,
   "Unnamed: 0": 499,
   "name": "Pollen Street Social",
   "latitude": 51.5133,
   "longitude": -0.14234,
   "city": "Mayfair",
   "region": "United Kingdom",
   "cuisine": "Creative",
   "url": "https://guide.michelin.com/gb/en/greater-london/mayfair/restaurant/pollen-street-social",
   "stars": 1
 },
 {
   "FIELD1": 102,
   "index": 500,
   "Unnamed: 0": 500,
   "name": "Hakkasan Mayfair",
   "latitude": 51.51037,
   "longitude": -0.14475,
   "city": "Mayfair",
   "region": "United Kingdom",
   "cuisine": "Chinese",
   "url": "https://guide.michelin.com/gb/en/greater-london/mayfair/restaurant/hakkasan-mayfair",
   "stars": 1
 },
 {
   "FIELD1": 103,
   "index": 501,
   "Unnamed: 0": 501,
   "name": "The Square",
   "latitude": 51.51069,
   "longitude": -0.14401,
   "city": "Mayfair",
   "region": "United Kingdom",
   "cuisine": "Creative French",
   "url": "https://guide.michelin.com/gb/en/greater-london/mayfair/restaurant/the-square69391",
   "stars": 1
 },
 {
   "FIELD1": 104,
   "index": 502,
   "Unnamed: 0": 502,
   "name": "Alyn Williams at The Westbury",
   "latitude": 51.51118,
   "longitude": -0.14303,
   "city": "Mayfair",
   "region": "United Kingdom",
   "cuisine": "Modern cuisine",
   "url": "https://guide.michelin.com/gb/en/greater-london/mayfair/restaurant/alyn-williams-at-the-westbury",
   "stars": 1
 },
 {
   "FIELD1": 105,
   "index": 503,
   "Unnamed: 0": 503,
   "name": "Benares",
   "latitude": 51.50973,
   "longitude": -0.14494,
   "city": "Mayfair",
   "region": "United Kingdom",
   "cuisine": "Indian",
   "url": "https://guide.michelin.com/gb/en/greater-london/mayfair/restaurant/benares",
   "stars": 1
 },
 {
   "FIELD1": 106,
   "index": 504,
   "Unnamed: 0": 504,
   "name": "Hakkasan Hanway Place",
   "latitude": 51.5171,
   "longitude": -0.13144,
   "city": "Bloomsbury",
   "region": "United Kingdom",
   "cuisine": "Chinese",
   "url": "https://guide.michelin.com/gb/en/greater-london/bloomsbury/restaurant/hakkasan-hanway-place",
   "stars": 1
 },
 {
   "FIELD1": 107,
   "index": 505,
   "Unnamed: 0": 505,
   "name": "Social Eating House",
   "latitude": 51.51383,
   "longitude": -0.13673,
   "city": "Soho",
   "region": "United Kingdom",
   "cuisine": "Modern cuisine",
   "url": "https://guide.michelin.com/gb/en/greater-london/soho/restaurant/social-eating-house",
   "stars": 1
 },
 {
   "FIELD1": 108,
   "index": 506,
   "Unnamed: 0": 506,
   "name": "Galvin at Windows",
   "latitude": 51.50539,
   "longitude": -0.15039,
   "city": "Mayfair",
   "region": "United Kingdom",
   "cuisine": "Modern cuisine",
   "url": "https://guide.michelin.com/gb/en/greater-london/mayfair/restaurant/galvin-at-windows",
   "stars": 1
 },
 {
   "FIELD1": 109,
   "index": 507,
   "Unnamed: 0": 507,
   "name": "Murano",
   "latitude": 51.50707,
   "longitude": -0.14722,
   "city": "Mayfair",
   "region": "United Kingdom",
   "cuisine": "Italian",
   "url": "https://guide.michelin.com/gb/en/greater-london/mayfair/restaurant/murano",
   "stars": 1
 },
 {
   "FIELD1": 110,
   "index": 508,
   "Unnamed: 0": 508,
   "name": "Marcus",
   "latitude": 51.50171,
   "longitude": -0.15614,
   "city": "Belgravia",
   "region": "United Kingdom",
   "cuisine": "Modern cuisine",
   "url": "https://guide.michelin.com/gb/en/greater-london/belgravia/restaurant/marcus",
   "stars": 1
 },
 {
   "FIELD1": 111,
   "index": 509,
   "Unnamed: 0": 509,
   "name": "Sabor",
   "latitude": 51.511368,
   "longitude": -0.1396773,
   "city": "Mayfair",
   "region": "United Kingdom",
   "cuisine": "Spanish",
   "url": "https://guide.michelin.com/gb/en/greater-london/mayfair/restaurant/sabor",
   "stars": 1
 },
 {
   "FIELD1": 112,
   "index": 510,
   "Unnamed: 0": 510,
   "name": "Clock House",
   "latitude": 51.30044,
   "longitude": -0.49287,
   "city": "Ripley",
   "region": "United Kingdom",
   "cuisine": "Modern cuisine",
   "url": "https://guide.michelin.com/gb/en/surrey/ripley/restaurant/clock-house",
   "stars": 1
 },
 {
   "FIELD1": 113,
   "index": 511,
   "Unnamed: 0": 511,
   "name": "Yauatcha Soho",
   "latitude": 51.51367,
   "longitude": -0.1352,
   "city": "Soho",
   "region": "United Kingdom",
   "cuisine": "Chinese",
   "url": "https://guide.michelin.com/gb/en/greater-london/soho/restaurant/yauatcha-soho",
   "stars": 1
 },
 {
   "FIELD1": 114,
   "index": 512,
   "Unnamed: 0": 512,
   "name": "Céleste",
   "latitude": 51.502422,
   "longitude": -0.1522617,
   "city": "Belgravia",
   "region": "United Kingdom",
   "cuisine": "Creative French",
   "url": "https://guide.michelin.com/gb/en/greater-london/belgravia/restaurant/celeste",
   "stars": 1
 },
 {
   "FIELD1": 115,
   "index": 513,
   "Unnamed: 0": 513,
   "name": "Gymkhana",
   "latitude": 51.50854,
   "longitude": -0.14154,
   "city": "Mayfair",
   "region": "United Kingdom",
   "cuisine": "Indian",
   "url": "https://guide.michelin.com/gb/en/greater-london/mayfair/restaurant/gymkhana",
   "stars": 1
 },
 {
   "FIELD1": 116,
   "index": 514,
   "Unnamed: 0": 514,
   "name": "Amaya",
   "latitude": 51.49912,
   "longitude": -0.15731,
   "city": "Belgravia",
   "region": "United Kingdom",
   "cuisine": "Indian",
   "url": "https://guide.michelin.com/gb/en/greater-london/belgravia/restaurant/amaya",
   "stars": 1
 },
 {
   "FIELD1": 117,
   "index": 515,
   "Unnamed: 0": 515,
   "name": "Pétrus",
   "latitude": 51.49951,
   "longitude": -0.15662,
   "city": "Belgravia",
   "region": "United Kingdom",
   "cuisine": "French",
   "url": "https://guide.michelin.com/gb/en/greater-london/belgravia/restaurant/petrus284688",
   "stars": 1
 },
 {
   "FIELD1": 118,
   "index": 516,
   "Unnamed: 0": 516,
   "name": "Veeraswamy",
   "latitude": 51.51008,
   "longitude": -0.13809,
   "city": "Mayfair",
   "region": "United Kingdom",
   "cuisine": "Indian",
   "url": "https://guide.michelin.com/gb/en/greater-london/mayfair/restaurant/veeraswamy",
   "stars": 1
 },
 {
   "FIELD1": 119,
   "index": 517,
   "Unnamed: 0": 517,
   "name": "Barrafina",
   "latitude": 51.51375,
   "longitude": -0.1318,
   "city": "Soho",
   "region": "United Kingdom",
   "cuisine": "Spanish",
   "url": "https://guide.michelin.com/gb/en/greater-london/soho/restaurant/barrafina",
   "stars": 1
 },
 {
   "FIELD1": 120,
   "index": 518,
   "Unnamed: 0": 518,
   "name": "Hide",
   "latitude": 51.506077,
   "longitude": -0.144289,
   "city": "Mayfair",
   "region": "United Kingdom",
   "cuisine": "Modern British",
   "url": "https://guide.michelin.com/gb/en/greater-london/mayfair/restaurant/hide",
   "stars": 1
 },
 {
   "FIELD1": 121,
   "index": 519,
   "Unnamed: 0": 519,
   "name": "Ritz Restaurant",
   "latitude": 51.50728,
   "longitude": -0.14141,
   "city": "Westminster",
   "region": "United Kingdom",
   "cuisine": "Modern British",
   "url": "https://guide.michelin.com/gb/en/greater-london/westminster/restaurant/ritz-restaurant",
   "stars": 1
 },
 {
   "FIELD1": 122,
   "index": 520,
   "Unnamed: 0": 520,
   "name": "Elystan Street",
   "latitude": 51.49124,
   "longitude": -0.16724,
   "city": "Chelsea",
   "region": "United Kingdom",
   "cuisine": "Modern British",
   "url": "https://guide.michelin.com/gb/en/greater-london/chelsea/restaurant/elystan-street",
   "stars": 1
 },
 {
   "FIELD1": 123,
   "index": 521,
   "Unnamed: 0": 521,
   "name": "Seven Park Place",
   "latitude": 51.50623,
   "longitude": -0.13998,
   "city": "Saint James's",
   "region": "United Kingdom",
   "cuisine": "Modern cuisine",
   "url": "https://guide.michelin.com/gb/en/greater-london/saint-james-s/restaurant/seven-park-place",
   "stars": 1
 },
 {
   "FIELD1": 124,
   "index": 522,
   "Unnamed: 0": 522,
   "name": "Ikoyi",
   "latitude": 51.509212,
   "longitude": -0.1334389,
   "city": "Saint James's",
   "region": "United Kingdom",
   "cuisine": "Creative",
   "url": "https://guide.michelin.com/gb/en/greater-london/saint-james-s/restaurant/ikoyi",
   "stars": 1
 },
 {
   "FIELD1": 125,
   "index": 523,
   "Unnamed: 0": 523,
   "name": "Aquavit",
   "latitude": 51.508713,
   "longitude": -0.1334072,
   "city": "Saint James's",
   "region": "United Kingdom",
   "cuisine": "Scandinavian",
   "url": "https://guide.michelin.com/gb/en/greater-london/saint-james-s/restaurant/aquavit501082",
   "stars": 1
 },
 {
   "FIELD1": 126,
   "index": 524,
   "Unnamed: 0": 524,
   "name": "Five Fields",
   "latitude": 51.49168,
   "longitude": -0.16124,
   "city": "Chelsea",
   "region": "United Kingdom",
   "cuisine": "Modern cuisine",
   "url": "https://guide.michelin.com/gb/en/greater-london/chelsea/restaurant/five-fields",
   "stars": 1
 },
 {
   "FIELD1": 127,
   "index": 525,
   "Unnamed: 0": 525,
   "name": "Dining Room at The Goring",
   "latitude": 51.49763,
   "longitude": -0.14556,
   "city": "Victoria",
   "region": "United Kingdom",
   "cuisine": "Traditional British",
   "url": "https://guide.michelin.com/gb/en/greater-london/victoria/restaurant/dining-room-at-the-goring",
   "stars": 1
 },
 {
   "FIELD1": 128,
   "index": 526,
   "Unnamed: 0": 526,
   "name": "St John",
   "latitude": 51.52064,
   "longitude": -0.10133,
   "city": "Clerkenwell",
   "region": "United Kingdom",
   "cuisine": "Traditional British",
   "url": "https://guide.michelin.com/gb/en/greater-london/clerkenwell/restaurant/st-john",
   "stars": 1
 },
 {
   "FIELD1": 129,
   "index": 527,
   "Unnamed: 0": 527,
   "name": "Quilon",
   "latitude": 51.49863,
   "longitude": -0.13726,
   "city": "Victoria",
   "region": "United Kingdom",
   "cuisine": "Indian",
   "url": "https://guide.michelin.com/gb/en/greater-london/victoria/restaurant/quilon",
   "stars": 1
 },
 {
   "FIELD1": 130,
   "index": 528,
   "Unnamed: 0": 528,
   "name": "Club Gascon",
   "latitude": 51.51857,
   "longitude": -0.10031,
   "city": "London",
   "region": "United Kingdom",
   "cuisine": "French",
   "url": "https://guide.michelin.com/gb/en/greater-london/london/restaurant/club-gascon",
   "stars": 1
 },
 {
   "FIELD1": 131,
   "index": 529,
   "Unnamed: 0": 529,
   "name": "A. Wong",
   "latitude": 51.49318,
   "longitude": -0.14128,
   "city": "Victoria",
   "region": "United Kingdom",
   "cuisine": "Chinese",
   "url": "https://guide.michelin.com/gb/en/greater-london/victoria/restaurant/a-wong",
   "stars": 1
 },
 {
   "FIELD1": 132,
   "index": 530,
   "Unnamed: 0": 530,
   "name": "The Clove Club",
   "latitude": 51.52711,
   "longitude": -0.07927,
   "city": "Shoreditch",
   "region": "United Kingdom",
   "cuisine": "Modern cuisine",
   "url": "https://guide.michelin.com/gb/en/greater-london/shoreditch/restaurant/the-clove-club",
   "stars": 1
 },
 {
   "FIELD1": 133,
   "index": 531,
   "Unnamed: 0": 531,
   "name": "Leroy",
   "latitude": 51.524086,
   "longitude": -0.0815337,
   "city": "Shoreditch",
   "region": "United Kingdom",
   "cuisine": "Modern British",
   "url": "https://guide.michelin.com/gb/en/greater-london/shoreditch/restaurant/leroy",
   "stars": 1
 },
 {
   "FIELD1": 134,
   "index": 532,
   "Unnamed: 0": 532,
   "name": "Angler",
   "latitude": 51.51894,
   "longitude": -0.08625,
   "city": "Finsbury",
   "region": "United Kingdom",
   "cuisine": "Seafood",
   "url": "https://guide.michelin.com/gb/en/greater-london/finsbury/restaurant/angler392235",
   "stars": 1
 },
 {
   "FIELD1": 135,
   "index": 533,
   "Unnamed: 0": 533,
   "name": "Brat",
   "latitude": 51.52427,
   "longitude": -0.0767681,
   "city": "Shoreditch",
   "region": "United Kingdom",
   "cuisine": "Traditional British",
   "url": "https://guide.michelin.com/gb/en/greater-london/shoreditch/restaurant/brat",
   "stars": 1
 },
 {
   "FIELD1": 136,
   "index": 534,
   "Unnamed: 0": 534,
   "name": "Lyle's",
   "latitude": 51.52378,
   "longitude": -0.07704,
   "city": "Shoreditch",
   "region": "United Kingdom",
   "cuisine": "Modern British",
   "url": "https://guide.michelin.com/gb/en/greater-london/shoreditch/restaurant/lyle-s",
   "stars": 1
 },
 {
   "FIELD1": 137,
   "index": 535,
   "Unnamed: 0": 535,
   "name": "Galvin La Chapelle",
   "latitude": 51.52032,
   "longitude": -0.0781,
   "city": "Spitalfields",
   "region": "United Kingdom",
   "cuisine": "French",
   "url": "https://guide.michelin.com/gb/en/greater-london/spitalfields/restaurant/galvin-la-chapelle",
   "stars": 1
 },
 {
   "FIELD1": 138,
   "index": 536,
   "Unnamed: 0": 536,
   "name": "City Social",
   "latitude": 51.51521,
   "longitude": -0.08431,
   "city": "City of London",
   "region": "United Kingdom",
   "cuisine": "Modern cuisine",
   "url": "https://guide.michelin.com/gb/en/greater-london/city-of-london/restaurant/city-social",
   "stars": 1
 },
 {
   "FIELD1": 139,
   "index": 537,
   "Unnamed: 0": 537,
   "name": "La Dame de Pic",
   "latitude": 51.510372,
   "longitude": -0.0788981,
   "city": "City of London",
   "region": "United Kingdom",
   "cuisine": "Modern French",
   "url": "https://guide.michelin.com/gb/en/greater-london/city-of-london/restaurant/la-dame-de-pic",
   "stars": 1
 },
 {
   "FIELD1": 140,
   "index": 538,
   "Unnamed: 0": 538,
   "name": "Story",
   "latitude": 51.50268,
   "longitude": -0.07774,
   "city": "Bermondsey",
   "region": "United Kingdom",
   "cuisine": "Modern cuisine",
   "url": "https://guide.michelin.com/gb/en/greater-london/bermondsey/restaurant/story",
   "stars": 1
 },
 {
   "FIELD1": 141,
   "index": 539,
   "Unnamed: 0": 539,
   "name": "Trinity",
   "latitude": 51.46336,
   "longitude": -0.14148,
   "city": "Clapham Common",
   "region": "United Kingdom",
   "cuisine": "Modern cuisine",
   "url": "https://guide.michelin.com/gb/en/greater-london/clapham-common/restaurant/trinity",
   "stars": 1
 },
 {
   "FIELD1": 142,
   "index": 540,
   "Unnamed: 0": 540,
   "name": "Chez Bruce",
   "latitude": 51.44607,
   "longitude": -0.16553,
   "city": "Wandsworth",
   "region": "United Kingdom",
   "cuisine": "French",
   "url": "https://guide.michelin.com/gb/en/greater-london/wandsworth/restaurant/chez-bruce",
   "stars": 1
 },
 {
   "FIELD1": 143,
   "index": 541,
   "Unnamed: 0": 541,
   "name": "Sorrel",
   "latitude": 51.228825,
   "longitude": -0.3346741,
   "city": "Dorking",
   "region": "United Kingdom",
   "cuisine": "Modern British",
   "url": "https://guide.michelin.com/gb/en/surrey/dorking/restaurant/sorrel545459",
   "stars": 1
 },
 {
   "FIELD1": 144,
   "index": 542,
   "Unnamed: 0": 542,
   "name": "Restaurant Tristan",
   "latitude": 51.062347,
   "longitude": -0.326034,
   "city": "Horsham",
   "region": "United Kingdom",
   "cuisine": "Modern British",
   "url": "https://guide.michelin.com/gb/en/west-sussex/horsham/restaurant/restaurant-tristan",
   "stars": 1
 },
 {
   "FIELD1": 145,
   "index": 543,
   "Unnamed: 0": 543,
   "name": "Gravetye Manor",
   "latitude": 51.08932,
   "longitude": -0.05691,
   "city": "Gravetye",
   "region": "United Kingdom",
   "cuisine": "Modern British",
   "url": "https://guide.michelin.com/gb/en/west-sussex/gravetye/restaurant/gravetye-manor",
   "stars": 1
 },
 {
   "FIELD1": 146,
   "index": 544,
   "Unnamed: 0": 544,
   "name": "The Sportsman",
   "latitude": 51.34392,
   "longitude": 0.95885,
   "city": "Seasalter",
   "region": "United Kingdom",
   "cuisine": "Modern British",
   "url": "https://guide.michelin.com/gb/en/kent/seasalter/restaurant/the-sportsman",
   "stars": 1
 },
 {
   "FIELD1": 147,
   "index": 545,
   "Unnamed: 0": 545,
   "name": "West House",
   "latitude": 51.11521,
   "longitude": 0.64215,
   "city": "Biddenden",
   "region": "United Kingdom",
   "cuisine": "Modern British",
   "url": "https://guide.michelin.com/gb/en/kent/biddenden/restaurant/west-house",
   "stars": 1
 },
 {
   "FIELD1": 148,
   "index": 546,
   "Unnamed: 0": 546,
   "name": "Fordwich Arms",
   "latitude": 51.295284,
   "longitude": 1.1261871,
   "city": "Fordwich",
   "region": "United Kingdom",
   "cuisine": "Modern cuisine",
   "url": "https://guide.michelin.com/gb/en/kent/fordwich/restaurant/fordwich-arms",
   "stars": 1
 },
 {
   "FIELD1": 149,
   "index": 547,
   "Unnamed: 0": 547,
   "name": "Samphire",
   "latitude": 49.18488,
   "longitude": -2.1057,
   "city": "Saint Helier/Saint-Hélier",
   "region": "United Kingdom",
   "cuisine": "Modern cuisine",
   "url": "https://guide.michelin.com/gb/en/saint-helier/saint-helier-saint-helier/restaurant/samphire392987",
   "stars": 1
 },
 {
   "FIELD1": 150,
   "index": 548,
   "Unnamed: 0": 548,
   "name": "Bohemia",
   "latitude": 49.181225,
   "longitude": -2.102417,
   "city": "Saint Helier/Saint-Hélier",
   "region": "United Kingdom",
   "cuisine": "Modern cuisine",
   "url": "https://guide.michelin.com/gb/en/saint-helier/saint-helier-saint-helier/restaurant/bohemia",
   "stars": 1
 },
 {
   "FIELD1": 151,
   "index": 610,
   "Unnamed: 0": 610,
   "name": "Patrick Guilbaud",
   "latitude": 53.33893,
   "longitude": -6.25283,
   "city": "City Centre",
   "region": "Ireland",
   "cuisine": "Modern French",
   "url": "https://guide.michelin.com/ie/en/dublin/city-centre/restaurant/patrick-guilbaud",
   "stars": 2
 },
 {
   "FIELD1": 152,
   "index": 640,
   "Unnamed: 0": 640,
   "name": "Andrew Fairlie at Gleneagles",
   "latitude": 56.28339,
   "longitude": -3.75149,
   "city": "Auchterarder",
   "region": "United Kingdom",
   "cuisine": "Creative French",
   "url": "https://guide.michelin.com/gb/en/perth-and-kinross/auchterarder/restaurant/andrew-fairlie-at-gleneagles",
   "stars": 2
 },
 {
   "FIELD1": 153,
   "index": 641,
   "Unnamed: 0": 641,
   "name": "L'Enclume",
   "latitude": 54.201885,
   "longitude": -2.953807,
   "city": "Cartmel",
   "region": "United Kingdom",
   "cuisine": "Creative",
   "url": "https://guide.michelin.com/gb/en/cumbria/cartmel/restaurant/l-enclume",
   "stars": 2
 },
 {
   "FIELD1": 154,
   "index": 642,
   "Unnamed: 0": 642,
   "name": "Raby Hunt",
   "latitude": 54.56647,
   "longitude": -1.689258,
   "city": "Summerhouse",
   "region": "United Kingdom",
   "cuisine": "Modern British",
   "url": "https://guide.michelin.com/gb/en/darlington/summerhouse/restaurant/raby-hunt",
   "stars": 2
 },
 {
   "FIELD1": 155,
   "index": 643,
   "Unnamed: 0": 643,
   "name": "Moor Hall",
   "latitude": 53.54162,
   "longitude": -2.8895495,
   "city": "Aughton",
   "region": "United Kingdom",
   "cuisine": "Modern British",
   "url": "https://guide.michelin.com/gb/en/lancashire/aughton/restaurant/moor-hall",
   "stars": 2
 },
 {
   "FIELD1": 156,
   "index": 644,
   "Unnamed: 0": 644,
   "name": "Restaurant Sat Bains",
   "latitude": 52.92438,
   "longitude": -1.1733198,
   "city": "Nottingham",
   "region": "United Kingdom",
   "cuisine": "Creative",
   "url": "https://guide.michelin.com/gb/en/nottingham/nottingham/restaurant/restaurant-sat-bains",
   "stars": 2
 },
 {
   "FIELD1": 157,
   "index": 645,
   "Unnamed: 0": 645,
   "name": "Restaurant Nathan Outlaw",
   "latitude": 50.594086,
   "longitude": -4.82854,
   "city": "Port Isaac",
   "region": "United Kingdom",
   "cuisine": "Seafood",
   "url": "https://guide.michelin.com/gb/en/cornwall/port-isaac/restaurant/restaurant-nathan-outlaw",
   "stars": 2
 },
 {
   "FIELD1": 158,
   "index": 646,
   "Unnamed: 0": 646,
   "name": "Belmond Le Manoir aux Quat' Saisons",
   "latitude": 51.71674,
   "longitude": -1.09187,
   "city": "Great Milton",
   "region": "United Kingdom",
   "cuisine": "French",
   "url": "https://guide.michelin.com/gb/en/oxfordshire/great-milton/restaurant/belmond-le-manoir-aux-quat-saisons",
   "stars": 2
 },
 {
   "FIELD1": 159,
   "index": 647,
   "Unnamed: 0": 647,
   "name": "Midsummer House",
   "latitude": 52.21243,
   "longitude": 0.12779,
   "city": "Cambridge",
   "region": "United Kingdom",
   "cuisine": "Modern cuisine",
   "url": "https://guide.michelin.com/gb/en/cambridgeshire/cambridge/restaurant/midsummer-house",
   "stars": 2
 },
 {
   "FIELD1": 160,
   "index": 648,
   "Unnamed: 0": 648,
   "name": "Hand and Flowers",
   "latitude": 51.57031,
   "longitude": -0.78113,
   "city": "Marlow",
   "region": "United Kingdom",
   "cuisine": "Modern British",
   "url": "https://guide.michelin.com/gb/en/buckinghamshire/marlow/restaurant/hand-and-flowers",
   "stars": 2
 },
 {
   "FIELD1": 161,
   "index": 649,
   "Unnamed: 0": 649,
   "name": "Ledbury",
   "latitude": 51.51674,
   "longitude": -0.20007,
   "city": "North Kensington",
   "region": "United Kingdom",
   "cuisine": "Modern cuisine",
   "url": "https://guide.michelin.com/gb/en/greater-london/north-kensington/restaurant/ledbury",
   "stars": 2
 },
 {
   "FIELD1": 162,
   "index": 650,
   "Unnamed: 0": 650,
   "name": "CORE by Clare Smyth",
   "latitude": 51.51261,
   "longitude": -0.2030516,
   "city": "North Kensington",
   "region": "United Kingdom",
   "cuisine": "Modern British",
   "url": "https://guide.michelin.com/gb/en/greater-london/north-kensington/restaurant/core-by-clare-smyth",
   "stars": 2
 },
 {
   "FIELD1": 163,
   "index": 651,
   "Unnamed: 0": 651,
   "name": "Le Gavroche",
   "latitude": 51.51127,
   "longitude": -0.15517,
   "city": "Mayfair",
   "region": "United Kingdom",
   "cuisine": "French",
   "url": "https://guide.michelin.com/gb/en/greater-london/mayfair/restaurant/le-gavroche",
   "stars": 2
 },
 {
   "FIELD1": 164,
   "index": 652,
   "Unnamed: 0": 652,
   "name": "Kitchen Table at Bubbledogs",
   "latitude": 51.52041,
   "longitude": -0.13647,
   "city": "Bloomsbury",
   "region": "United Kingdom",
   "cuisine": "Modern cuisine",
   "url": "https://guide.michelin.com/gb/en/greater-london/bloomsbury/restaurant/kitchen-table-at-bubbledogs",
   "stars": 2
 },
 {
   "FIELD1": 165,
   "index": 653,
   "Unnamed: 0": 653,
   "name": "Hélène Darroze at The Connaught",
   "latitude": 51.5101,
   "longitude": -0.1495701,
   "city": "Mayfair",
   "region": "United Kingdom",
   "cuisine": "Modern cuisine",
   "url": "https://guide.michelin.com/gb/en/greater-london/mayfair/restaurant/helene-darroze-at-the-connaught",
   "stars": 2
 },
 {
   "FIELD1": 166,
   "index": 654,
   "Unnamed: 0": 654,
   "name": "Dinner by Heston Blumenthal",
   "latitude": 51.50208,
   "longitude": -0.16011,
   "city": "Hyde Park",
   "region": "United Kingdom",
   "cuisine": "Traditional British",
   "url": "https://guide.michelin.com/gb/en/greater-london/hyde-park/restaurant/dinner-by-heston-blumenthal",
   "stars": 2
 },
 {
   "FIELD1": 167,
   "index": 655,
   "Unnamed: 0": 655,
   "name": "Umu",
   "latitude": 51.5113,
   "longitude": -0.14455,
   "city": "Mayfair",
   "region": "United Kingdom",
   "cuisine": "Japanese",
   "url": "https://guide.michelin.com/gb/en/greater-london/mayfair/restaurant/umu",
   "stars": 2
 },
 {
   "FIELD1": 168,
   "index": 656,
   "Unnamed: 0": 656,
   "name": "Sketch (The Lecture Room & Library)",
   "latitude": 51.51287,
   "longitude": -0.14136,
   "city": "Mayfair",
   "region": "United Kingdom",
   "cuisine": "Modern French",
   "url": "https://guide.michelin.com/gb/en/greater-london/mayfair/restaurant/sketch-the-lecture-room-library",
   "stars": 2
 },
 {
   "FIELD1": 169,
   "index": 657,
   "Unnamed: 0": 657,
   "name": "Greenhouse",
   "latitude": 51.50769,
   "longitude": -0.14926,
   "city": "Mayfair",
   "region": "United Kingdom",
   "cuisine": "Creative",
   "url": "https://guide.michelin.com/gb/en/greater-london/mayfair/restaurant/greenhouse69393",
   "stars": 2
 },
 {
   "FIELD1": 170,
   "index": 658,
   "Unnamed: 0": 658,
   "name": "Claude Bosi at Bibendum",
   "latitude": 51.49341,
   "longitude": -0.1690893,
   "city": "Chelsea",
   "region": "United Kingdom",
   "cuisine": "French",
   "url": "https://guide.michelin.com/gb/en/greater-london/chelsea/restaurant/claude-bosi-at-bibendum",
   "stars": 2
 },
 {
   "FIELD1": 171,
   "index": 690,
   "Unnamed: 0": 690,
   "name": "Fat Duck",
   "latitude": 51.50828,
   "longitude": -0.70232,
   "city": "Bray",
   "region": "United Kingdom",
   "cuisine": "Creative",
   "url": "https://guide.michelin.com/gb/en/buckinghamshire/bray/restaurant/fat-duck",
   "stars": 3
 },
 {
   "FIELD1": 172,
   "index": 691,
   "Unnamed: 0": 691,
   "name": "Waterside Inn",
   "latitude": 51.50773,
   "longitude": -0.70121,
   "city": "Bray",
   "region": "United Kingdom",
   "cuisine": "Classic French",
   "url": "https://guide.michelin.com/gb/en/buckinghamshire/bray/restaurant/waterside-inn",
   "stars": 3
 },
 {
   "FIELD1": 173,
   "index": 692,
   "Unnamed: 0": 692,
   "name": "Alain Ducasse at The Dorchester",
   "latitude": 51.50712,
   "longitude": -0.1525201,
   "city": "Mayfair",
   "region": "United Kingdom",
   "cuisine": "French",
   "url": "https://guide.michelin.com/gb/en/greater-london/mayfair/restaurant/alain-ducasse-at-the-dorchester",
   "stars": 3
 },
 {
   "FIELD1": 174,
   "index": 693,
   "Unnamed: 0": 693,
   "name": "The Araki",
   "latitude": 51.511826,
   "longitude": -0.140389,
   "city": "Mayfair",
   "region": "United Kingdom",
   "cuisine": "Japanese",
   "url": "https://guide.michelin.com/gb/en/greater-london/mayfair/restaurant/the-araki",
   "stars": 3
 },
 {
   "FIELD1": 175,
   "index": 694,
   "Unnamed: 0": 694,
   "name": "Gordon Ramsay",
   "latitude": 51.48546,
   "longitude": -0.1620201,
   "city": "Chelsea",
   "region": "United Kingdom",
   "cuisine": "French",
   "url": "https://guide.michelin.com/gb/en/greater-london/chelsea/restaurant/gordon-ramsay",
   "stars": 3
 }
]